[
  {"id": "florentin", "name_en": "Florentin", "name_he": "פלורנטין", "lat": 32.056, "lng": 34.769, "avg_rent_1br": 4800, "avg_rent_2br": 5900, "avg_rent_3br": 7800, "avg_rent_4br": 10000, "avg_price_sqm": 42000},
  {"id": "old-north", "name_en": "Old North", "name_he": "הצפון הישן", "lat": 32.087, "lng": 34.774, "avg_rent_1br": 5500, "avg_rent_2br": 7500, "avg_rent_3br": 9800, "avg_rent_4br": 13000, "avg_price_sqm": 55000},
  {"id": "new-north", "name_en": "New North", "name_he": "הצפון החדש", "lat": 32.092, "lng": 34.782, "avg_rent_1br": 5800, "avg_rent_2br": 8000, "avg_rent_3br": 10500, "avg_rent_4br": 14000, "avg_price_sqm": 58000},
  {"id": "lev-hair", "name_en": "City Center", "name_he": "לב העיר", "lat": 32.067, "lng": 34.773, "avg_rent_1br": 5200, "avg_rent_2br": 7800, "avg_rent_3br": 11000, "avg_rent_4br": 14500, "avg_price_sqm": 52000},
  {"id": "neve-tzedek", "name_en": "Neve Tzedek", "name_he": "נווה צדק", "lat": 32.060, "lng": 34.766, "avg_rent_1br": 6000, "avg_rent_2br": 8500, "avg_rent_3br": 12000, "avg_rent_4br": 16000, "avg_price_sqm": 65000},
  {"id": "kerem-hateimanim", "name_en": "Kerem HaTeimanim", "name_he": "כרם התימנים", "lat": 32.065, "lng": 34.764, "avg_rent_1br": 5000, "avg_rent_2br": 7000, "avg_rent_3br": 9500, "avg_rent_4br": null, "avg_price_sqm": 48000},
  {"id": "jaffa", "name_en": "Jaffa", "name_he": "יפו", "lat": 32.050, "lng": 34.751, "avg_rent_1br": 3800, "avg_rent_2br": 5200, "avg_rent_3br": 6800, "avg_rent_4br": 8500, "avg_price_sqm": 32000},
  {"id": "ajami", "name_en": "Ajami", "name_he": "עג'מי", "lat": 32.046, "lng": 34.749, "avg_rent_1br": 3500, "avg_rent_2br": 4800, "avg_rent_3br": 6200, "avg_rent_4br": 7800, "avg_price_sqm": 28000},
  {"id": "ramat-aviv", "name_en": "Ramat Aviv", "name_he": "רמת אביב", "lat": 32.113, "lng": 34.797, "avg_rent_1br": 5000, "avg_rent_2br": 7200, "avg_rent_3br": 9000, "avg_rent_4br": 11500, "avg_price_sqm": 48000},
  {"id": "bavli", "name_en": "Bavli", "name_he": "בבלי", "lat": 32.098, "lng": 34.788, "avg_rent_1br": 5200, "avg_rent_2br": 7500, "avg_rent_3br": 9500, "avg_rent_4br": 12500, "avg_price_sqm": 52000},
  {"id": "tzahala", "name_en": "Tzahala", "name_he": "צהלה", "lat": 32.120, "lng": 34.810, "avg_rent_1br": 5500, "avg_rent_2br": 8000, "avg_rent_3br": 11000, "avg_rent_4br": 15000, "avg_price_sqm": 45000},
  {"id": "neve-shaanan", "name_en": "Neve Sha'anan", "name_he": "נווה שאנן", "lat": 32.059, "lng": 34.776, "avg_rent_1br": 3200, "avg_rent_2br": 4500, "avg_rent_3br": 5800, "avg_rent_4br": 7000, "avg_price_sqm": 25000},
  {"id": "shapira", "name_en": "Shapira", "name_he": "שפירא", "lat": 32.055, "lng": 34.775, "avg_rent_1br": 3500, "avg_rent_2br": 5000, "avg_rent_3br": 6500, "avg_rent_4br": 8000, "avg_price_sqm": 28000},
  {"id": "montefiore", "name_en": "Montefiore", "name_he": "מונטיפיורי", "lat": 32.062, "lng": 34.770, "avg_rent_1br": 5500, "avg_rent_2br": 7500, "avg_rent_3br": 10000, "avg_rent_4br": 13000, "avg_price_sqm": 55000},
  {"id": "sarona", "name_en": "Sarona", "name_he": "שרונה", "lat": 32.073, "lng": 34.785, "avg_rent_1br": 6500, "avg_rent_2br": 9500, "avg_rent_3br": 13000, "avg_rent_4br": 17000, "avg_price_sqm": 68000},
  {"id": "kiryat-shalom", "name_en": "Kiryat Shalom", "name_he": "קרית שלום", "lat": 32.054, "lng": 34.782, "avg_rent_1br": 3000, "avg_rent_2br": 4200, "avg_rent_3br": 5500, "avg_rent_4br": 6800, "avg_price_sqm": 22000},
  {"id": "hatikva", "name_en": "HaTikva", "name_he": "התקווה", "lat": 32.052, "lng": 34.790, "avg_rent_1br": 2800, "avg_rent_2br": 3800, "avg_rent_3br": 5000, "avg_rent_4br": 6200, "avg_price_sqm": 20000},
  {"id": "yad-eliyahu", "name_en": "Yad Eliyahu", "name_he": "יד אליהו", "lat": 32.058, "lng": 34.791, "avg_rent_1br": 4000, "avg_rent_2br": 5800, "avg_rent_3br": 7500, "avg_rent_4br": 9500, "avg_price_sqm": 35000},
  {"id": "nahalat-yitzhak", "name_en": "Nahalat Yitzhak", "name_he": "נחלת יצחק", "lat": 32.073, "lng": 34.795, "avg_rent_1br": 4500, "avg_rent_2br": 6500, "avg_rent_3br": 8500, "avg_rent_4br": 11000, "avg_price_sqm": 40000}
]
